{
  "description": "Potentially dangerous glacial lakes from ICIMOD and published inventories. Parameters are best estimates from published research.",
  "lakes": [
    {
      "id": "imja",
      "name": "Imja Tsho",
      "country": "Nepal",
      "region": "Khumbu, Everest",
      "lat": 27.8986,
      "lon": 86.9222,
      "elevation_m": 5010,
      "volume_m3": 61700000,
      "dam_height_m": 45,
      "risk_rank": "I",
      "valley_slope": 0.04,
      "channel_width_m": 40,
      "channel_depth_m": 5,
      "manning_n": 0.07,
      "villages": [
        {"name": "Dingboche", "name_nepali": "\u0921\u093f\u0919\u094d\u092c\u094b\u091a\u0947", "distance_km": 7, "elevation_m": 4410, "population": 300, "lat": 27.8955, "lon": 86.8318},
        {"name": "Pangboche", "name_nepali": "\u092a\u093e\u0919\u094d\u092c\u094b\u091a\u0947", "distance_km": 12, "elevation_m": 3985, "population": 400, "lat": 27.8569, "lon": 86.7936},
        {"name": "Namche Bazaar", "name_nepali": "\u0928\u093e\u092e\u094d\u091a\u0947 \u092c\u091c\u093e\u0930", "distance_km": 25, "elevation_m": 3440, "population": 1600, "lat": 27.8069, "lon": 86.7141},
        {"name": "Lukla", "name_nepali": "\u0932\u0941\u0915\u094d\u0932\u093e", "distance_km": 40, "elevation_m": 2860, "population": 600, "lat": 27.6868, "lon": 86.7305}
      ]
    },
    {
      "id": "lower_barun",
      "name": "Lower Barun Glacial Lake",
      "country": "Nepal",
      "region": "Makalu-Barun",
      "lat": 27.8170,
      "lon": 87.0910,
      "elevation_m": 4850,
      "volume_m3": 110000000,
      "dam_height_m": 104,
      "risk_rank": "I",
      "valley_slope": 0.05,
      "channel_width_m": 30,
      "channel_depth_m": 5,
      "manning_n": 0.07,
      "villages": [
        {"name": "Barun Bazaar", "name_nepali": "\u092c\u0930\u0941\u0923 \u092c\u091c\u093e\u0930", "distance_km": 20, "elevation_m": 3800, "population": 200, "lat": 27.7650, "lon": 87.0550},
        {"name": "Num", "name_nepali": "\u0928\u0941\u092e", "distance_km": 45, "elevation_m": 1560, "population": 500, "lat": 27.6180, "lon": 87.0670},
        {"name": "Khandbari", "name_nepali": "\u0916\u093e\u0901\u0921\u092c\u093e\u0930\u0940", "distance_km": 75, "elevation_m": 1040, "population": 8000, "lat": 27.3780, "lon": 87.0140}
      ]
    },
    {
      "id": "tsho_rolpa",
      "name": "Tsho Rolpa",
      "country": "Nepal",
      "region": "Rolwaling, Dolakha",
      "lat": 27.8620,
      "lon": 86.4770,
      "elevation_m": 4580,
      "volume_m3": 80000000,
      "dam_height_m": 55,
      "risk_rank": "I",
      "valley_slope": 0.045,
      "channel_width_m": 35,
      "channel_depth_m": 5,
      "manning_n": 0.06,
      "villages": [
        {"name": "Na", "name_nepali": "\u0928\u093e", "distance_km": 5, "elevation_m": 4180, "population": 100, "lat": 27.8530, "lon": 86.4350},
        {"name": "Beding", "name_nepali": "\u092c\u0947\u0926\u093f\u0919", "distance_km": 10, "elevation_m": 3740, "population": 300, "lat": 27.8370, "lon": 86.3890},
        {"name": "Simigaon", "name_nepali": "\u0938\u093f\u092e\u093f\u0917\u093e\u0909\u0901", "distance_km": 25, "elevation_m": 2000, "population": 600, "lat": 27.8150, "lon": 86.3200}
      ]
    },
    {
      "id": "thulagi",
      "name": "Thulagi Glacial Lake",
      "country": "Nepal",
      "region": "Manang, Annapurna",
      "lat": 28.4880,
      "lon": 84.4280,
      "elevation_m": 4060,
      "volume_m3": 35600000,
      "dam_height_m": 40,
      "risk_rank": "I",
      "valley_slope": 0.05,
      "channel_width_m": 30,
      "channel_depth_m": 4,
      "manning_n": 0.07,
      "villages": [
        {"name": "Dharapani", "name_nepali": "\u0927\u093e\u0930\u093e\u092a\u093e\u0928\u0940", "distance_km": 15, "elevation_m": 1920, "population": 400, "lat": 28.4710, "lon": 84.4530},
        {"name": "Tal", "name_nepali": "\u0924\u093e\u0932", "distance_km": 22, "elevation_m": 1700, "population": 300, "lat": 28.4350, "lon": 84.4650}
      ]
    },
    {
      "id": "palcacocha",
      "name": "Lake Palcacocha",
      "country": "Peru",
      "region": "Cordillera Blanca, Ancash",
      "lat": -9.3950,
      "lon": -77.3820,
      "elevation_m": 4562,
      "volume_m3": 17300000,
      "dam_height_m": 60,
      "risk_rank": "I",
      "valley_slope": 0.06,
      "channel_width_m": 25,
      "channel_depth_m": 4,
      "manning_n": 0.06,
      "villages": [
        {"name": "Nueva Florida", "distance_km": 10, "elevation_m": 3800, "population": 500, "lat": -9.4530, "lon": -77.4180},
        {"name": "Huaraz", "distance_km": 25, "elevation_m": 3052, "population": 120000, "lat": -9.5270, "lon": -77.5280}
      ]
    },
    {
      "id": "chorabari",
      "name": "Chorabari Lake (Kedarnath)",
      "country": "India",
      "region": "Uttarakhand",
      "lat": 30.7350,
      "lon": 79.0670,
      "elevation_m": 3900,
      "volume_m3": 3800000,
      "dam_height_m": 20,
      "risk_rank": "Historical event (2013)",
      "valley_slope": 0.08,
      "channel_width_m": 15,
      "channel_depth_m": 3,
      "manning_n": 0.07,
      "villages": [
        {"name": "Kedarnath Temple", "distance_km": 2, "elevation_m": 3583, "population": 500, "lat": 30.7346, "lon": 79.0669},
        {"name": "Rambara", "distance_km": 8, "elevation_m": 2800, "population": 200, "lat": 30.6970, "lon": 79.0530},
        {"name": "Gaurikund", "distance_km": 14, "elevation_m": 1980, "population": 1000, "lat": 30.6570, "lon": 79.0390}
      ]
    }
  ]
}
